{
    "type": "FeatureCollection",
    "features": [
      {
        "type": "Feature",
        "properties": {
          "Type": "Golf",
          "Name": "Hills Gk",
          "ChargingInfo": "https://www.hillsgolfclub.se/medlem/elbilsladdning/",
          "Power": "7/22kWh",
          "Number": "150"
        },
        "geometry": {
          "type": "Point",
          "coordinates": [
            12.012670040130615,
            57.62153640362195
          ]
        }
      },
      {
        "type": "Feature",
        "properties": {
          "Type": "Golf",
          "Name": "Ekerum GK",
          "ChargingInfo": "",
          "Power": "7kWh",
          "Number": "6"
        },
        "geometry": {
          "type": "Point",
          "coordinates": [
            16.578696,
            56.784801
          ]
        }
      },
      {
        "type": "Feature",
        "properties": {
          "Type": "Golf",
          "Name": "Ombergs Golf Resort",
          "ChargingInfo": "",
          "Power": "7/22kWh",
          "Number": "9"
        },
        "geometry": {
          "type": "Point",
          "coordinates": [
            14.622856,
            58.260025 
          ]
        }
      },
      {
        "type": "Feature",
        "properties": {
          "Type": "Golf",
          "Name": "Landeryds GK",
          "ChargingInfo": "https://www.landerydsgolf.se/aktuellt-medlem/1071-laddpunkter-foer-elbilar-och-laddhybrider",
          "Power": "11kWh",
          "Number": "4"
        },
        "geometry": {
          "type": "Point",
          "coordinates": [
            15.709267,
            58.360231
          ]
        }
      },
      {
        "type": "Feature",
        "properties": {
          "Type": "Golf",
          "Name": "Lysekil Holma GK",
          "ChargingInfo": "",
          "Power": "22kWh",
          "Number": "2"
        },
        "geometry": {
          "type": "Point",
          "coordinates": [
            11.550014, 
            58.372435
          ]
        }
      },
      {
        "type": "Feature",
        "properties": {
          "Type": "Golf",
          "Name": "Arninge GK",
          "ChargingInfo": "",
          "Power": "3,7kWh",
          "Number": "4"
        },
        "geometry": {
          "type": "Point",
          "coordinates": [
            18.126900,
            59.484017
          ]
        }
      },
      {
        "type": "Feature",
        "properties": {
          "Type": "Golf",
          "Name": "Friiberghs Gk",
          "ChargingInfo": "https://www.friiberghsgk.se/gast",
          "Power": "7/22kWh",
          "Number": "5"
        },
        "geometry": {
          "type": "Point",
          "coordinates": [
            17.490780,
            59.699926
          ]
        }
      },
      {
        "type": "Feature",
        "properties": {
          "Type": "Golf",
          "Name": "Gävle Gk",
          "ChargingInfo": "",
          "Power": "22kWh",
          "Number": "2"
        },
        "geometry": {
          "type": "Point",
          "coordinates": [
            17.177562,
            60.700022
          ]
        }
      },
      {
        "type": "Feature",
        "properties": {
          "Type": "Golf",
          "Name": "Luleå Gk",
          "ChargingInfo": "https://www.luleaenergi.se/sv/privatkund/nyheter/ny-laddningsmojligheter-pa-lulea-golfklubb/",
          "Power": "11kWh",
          "Number": "4"
        },
        "geometry": {
          "type": "Point",
          "coordinates": [
            22.092493,
            65.685225
          ]
        }
      },
      {
        "type": "Feature",
        "properties": {
          "Type": "Golf",
          "Name": "Lydinge Resort",
          "ChargingInfo": "",
          "Power": "11kWh",
          "Number": "2"
        },
        "geometry": {
          "type": "Point",
          "coordinates": [
            12.866331,
            56.099093
          ]
        }
      },
      {
        "type": "Feature",
        "properties": {
          "Type": "Golf",
          "Name": "Wäsby Golf",
          "ChargingInfo": "",
          "Power": "Okänt",
          "Number": "Okänt"
        },
        "geometry": {
          "type": "Point",
          "coordinates": [
            17.963543,
            59.534679
          ]
        }
      },
      {
        "type": "Feature",
        "properties": {
          "Type": "Golf",
          "Name": "Kumla Golfklubb",
          "ChargingInfo": "http://www.kumlagk.se/laddstolpe-for-elbilar/",
          "Power": "Okänt",
          "Number": "2"
        },
        "geometry": {
          "type": "Point",
          "coordinates": [
            15.258346,
            59.119383
          ]
        }
      },
      {
        "type": "Feature",
        "properties": {
          "Type": "Golf",
          "Name": "Sjögärde GK",
          "ChargingInfo": "",
          "Power": "11kWh",
          "Number": "1"
        },
        "geometry": {
          "type": "Point",
          "coordinates": [
            15.258346,
            59.119383
          ]
        }
      },
      {
        "type": "Feature",
        "properties": {
          "Type": "Golf",
          "Name": "Lindesberg GK",
          "ChargingInfo": "https://lindesbergsgk.se/laddstolpe-pa-plats/",
          "Power": "2,2kWh",
          "Number": "2"
        },
        "geometry": {
          "type": "Point",
          "coordinates": [
            15.241774,
            59.584986
          ]
        }
      },
      {
        "type": "Feature",
        "properties": {
          "Type": "Golf",
          "Name": "Lyckorna GK",
          "ChargingInfo": "http://www.ljungskile.se/laddstolparna-ar-pa-plats-pa-lyckorna-golfklubb/",
          "Power": "22kWh",
          "Number": "4"
        },
        "geometry": {
          "type": "Point",
          "coordinates": [
            11.903338,
            58.202225
          ]
        }
      },
      {
        "type": "Feature",
        "properties": {
          "Type": "Golf",
          "Name": "Grytsbergs GK",
          "ChargingInfo": "",
          "Power": "11kWh",
          "Number": "4"
        },
        "geometry": {
          "type": "Point",
          "coordinates": [
            16.990898,
            59.102359
          ]
        }
      },
      {
        "type": "Feature",
        "properties": {
          "Type": "Golf",
          "Name": "Ekholmsnäs GK",
          "ChargingInfo": "",
          "Power": "7/?kWh",
          "Number": "3"
        },
        "geometry": {
          "type": "Point",
          "coordinates": [
            18.188352,
            59.361295
          ]
        }
      }
    ]
  }